[{"filename": "bhop.jpeg", "latitude": "23.2599", "longitude": "77.4126"}, {"filename": "blr.jpeg", "latitude": "12.9716", "longitude": "77.5946"}, {"filename": "chennai.jpeg", "latitude": "13.0843", "longitude": "80.2705"}, {"filename": "chenn.jpeg", "latitude": "13.0843", "longitude": "80.2705"}, {"filename": "delhi.jpg", "latitude": "28.7041", "longitude": "77.1025"}, {"filename": "kolkata.jpeg", "latitude": "22.5744", "longitude": "88.3629"}, {"filename": "punjab.jpg", "latitude": "30.351761", "longitude": "76.3644806"}, {"filename": "bhop.jpeg", "latitude": "12.9216173", "longitude": "80.2411457"}]